latitude,zip_code,longitude,city,state,country
40.922326,501,-72.637078,Holtsville,NY,Suffolk
40.922326,544,-72.637078,Holtsville,NY,Suffolk
18.165273,601,-66.722583,Adjuntas,PR,Adjuntas
18.393103,602,-67.180953,Aguada,PR,Aguada
18.455913,603,-67.14578,Aguadilla,PR,Aguadilla
18.49352,604,-67.135883,Aguadilla,PR,Aguadilla
18.465162,605,-67.141486,Aguadilla,PR,Aguadilla
18.172947,606,-66.944111,Maricao,PR,Maricao
18.288685,610,-67.139696,Anasco,PR,Anasco
18.279531,611,-66.80217,Angeles,PR,Utuado
